[
  { "name": "Tunday Kababi", "location": "Aminabad", "budget": "₹₹", "vibe": "Heritage, Authentic, Busy", "signature_dish": "Galouti Kebab", "avg_price": 300, "lat": 26.8439, "lon": 80.9250 },
  { "name": "Royal Cafe", "location": "Hazratganj", "budget": "₹₹", "vibe": "Family, Iconic, Lively", "signature_dish": "Basket Chaat", "avg_price": 450, "lat": 26.8516, "lon": 80.9446 },
  { "name": "Sky Glass Brewing Co.", "location": "Phoenix Palassio", "budget": "₹₹₹", "vibe": "Upmarket, Party, Modern", "signature_dish": "Craft Pizza", "avg_price": 1200, "lat": 26.8045, "lon": 81.0245 },
  { "name": "The Peddler's", "location": "IT City", "budget": "₹₹", "vibe": "Student Friendly, Casual", "signature_dish": "Pasta", "avg_price": 350, "lat": 26.7820, "lon": 81.0310 },
  { "name": "Idris Biryani", "location": "Chowk", "budget": "₹", "vibe": "Rustic, Street Food", "signature_dish": "Mutton Biryani", "avg_price": 200, "lat": 26.8667, "lon": 80.9122 },
  { "name": "Cappuccino Blast", "location": "Gomti Nagar", "budget": "₹₹₹", "vibe": "Aesthetic, Date Spot", "signature_dish": "Frozen Hot Chocolate", "avg_price": 800, "lat": 26.8522, "lon": 81.0021 },
  { "name": "Dastarkhwan", "location": "Lalbagh", "budget": "₹₹", "vibe": "Mughlai, Foodie Heaven", "signature_dish": "Boti Kabab", "avg_price": 500, "lat": 26.8490, "lon": 80.9410 },
  { "name": "Sharma Tea Stall", "location": "Lalbagh", "budget": "₹", "vibe": "Classic, Social", "signature_dish": "Bun Makkhan", "avg_price": 80, "lat": 26.8495, "lon": 80.9405 },
  { "name": "Vintage Machine", "location": "Gomti Nagar", "budget": "₹₹₹", "vibe": "Industrial, Chic", "signature_dish": "Eggs Benedict", "avg_price": 900, "lat": 26.8612, "lon": 81.0015 },
  { "name": "L-14 Renaissance", "location": "Gomti Nagar", "budget": "₹₹₹", "vibe": "Luxury, Buffet", "signature_dish": "Brunch", "avg_price": 2500, "lat": 26.8595, "lon": 80.9855 },
  { "name": "Azrak", "location": "Lebua Lucknow", "budget": "₹₹₹", "vibe": "Royal, Quiet", "signature_dish": "Nalli Nihari", "avg_price": 1800, "lat": 26.8550, "lon": 80.9450 },
  { "name": "GPO Ke Thande Dahi Bade", "location": "Hazratganj", "budget": "₹", "vibe": "Quick, Iconic", "signature_dish": "Dahi Bada", "avg_price": 100, "lat": 26.8480, "lon": 80.9450 },
  { "name": "Oudhyana", "location": "Vivanta Taj", "budget": "₹₹₹", "vibe": "Fine Dining, Elegant", "signature_dish": "Kakori Kebab", "avg_price": 3000, "lat": 26.8410, "lon": 80.9700 },
  { "name": "The Big Grill", "location": "Phoenix Palassio", "budget": "₹₹₹", "vibe": "Buffet, Celebration", "signature_dish": "Grilled Prawns", "avg_price": 1100, "lat": 26.8040, "lon": 81.0250 },
  { "name": "Kalika Hut", "location": "Gomti Nagar", "budget": "₹₹", "vibe": "Desi, Spicy", "signature_dish": "Mutton Handi", "avg_price": 400, "lat": 26.8500, "lon": 81.0100 },
  { "name": "Open Air Restaurant", "location": "Tulsi Theatre", "budget": "₹₹", "vibe": "Old School, Chill", "signature_dish": "Chicken Masala", "avg_price": 450, "lat": 26.8499, "lon": 80.9420 },
  { "name": "Chayyan", "location": "Near IIIT-L", "budget": "₹", "vibe": "Student Adda, Tea", "signature_dish": "Masala Chai", "avg_price": 50, "lat": 26.7805, "lon": 81.0315 },
  { "name": "Muskurayeen", "location": "Phoenix Palassio", "budget": "₹₹", "vibe": "Contemporary, Fusion", "signature_dish": "Paneer Tikka Pizza", "avg_price": 600, "lat": 26.8050, "lon": 81.0240 },
  { "name": "Buraq", "location": "Hazratganj", "budget": "₹₹", "vibe": "Modern Mughlai", "signature_dish": "Murgh Musallam", "avg_price": 700, "lat": 26.8520, "lon": 80.9460 },
  { "name": "Homey Meals", "location": "Arjun Ganj", "budget": "₹", "vibe": "Thali, Simple", "signature_dish": "Special Thali", "avg_price": 150, "lat": 26.7900, "lon": 80.9900 },
  { "name": "Sakhawat", "location": "Near Gymkhana", "budget": "₹₹", "vibe": "Secret Spot, Authentic", "signature_dish": "Shammi Kebab", "avg_price": 350, "lat": 26.8530, "lon": 80.9380 },
  { "name": "Netram", "location": "Aminabad", "budget": "₹", "vibe": "Traditional Breakfast", "signature_dish": "Kachori Sabzi", "avg_price": 120, "lat": 26.8450, "lon": 80.9260 },
  { "name": "Prakash Kulfi", "location": "Aminabad", "budget": "₹", "vibe": "Sweet, Iconic", "signature_dish": "Falooda Kulfi", "avg_price": 150, "lat": 26.8440, "lon": 80.9255 },
  { "name": "Moti Mahal", "location": "Hazratganj", "budget": "₹₹", "vibe": "Nostalgic, Sweet Shop", "signature_dish": "Imarti", "avg_price": 250, "lat": 26.8510, "lon": 80.9440 },
  { "name": "Rovers", "location": "Hazratganj", "budget": "₹₹", "vibe": "Fast Food, Hangout", "signature_dish": "Frankie", "avg_price": 300, "lat": 26.8515, "lon": 80.9442 },
  { "name": "Green Restaurant", "location": "Chowk", "budget": "₹", "vibe": "Pure Veg, Old", "signature_dish": "Dal Makhani", "avg_price": 250, "lat": 26.8670, "lon": 80.9130 },
  { "name": "The Terrace", "location": "Hazratganj", "budget": "₹₹₹", "vibe": "Rooftop, Buffet", "signature_dish": "Pasta Bar", "avg_price": 950, "lat": 26.8525, "lon": 80.9430 },
  { "name": "Spice Caves", "location": "Gomti Nagar", "budget": "₹₹₹", "vibe": "Themed, Cave, Family", "signature_dish": "Tandoori Chicken", "avg_price": 850, "lat": 26.8620, "lon": 80.9950 },
  { "name": "Pack 'N' Chew", "location": "Gomti Nagar", "budget": "₹₹", "vibe": "Casual, Friends", "signature_dish": "Paneer Butter Masala", "avg_price": 450, "lat": 26.8630, "lon": 81.0020 },
  { "name": "Curry Leaf", "location": "Hazratganj", "budget": "₹₹", "vibe": "South Indian, Calm", "signature_dish": "Ghee Roast Dosa", "avg_price": 350, "lat": 26.8505, "lon": 80.9435 },
  { "name": "Aura", "location": "Near IIIT-L", "budget": "₹₹", "vibe": "Modern, Chill", "signature_dish": "Veg Platter", "avg_price": 500, "lat": 26.7815, "lon": 81.0320 },
  { "name": "Under the Tree", "location": "Gomti Nagar", "budget": "₹₹", "vibe": "Garden, Nature", "signature_dish": "Cold Coffee", "avg_price": 400, "lat": 26.8600, "lon": 80.9980 },
  { "name": "Urban Terrace", "location": "Gomti Nagar", "budget": "₹₹₹", "vibe": "Rooftop, Scenic", "signature_dish": "Cocktails", "avg_price": 1300, "lat": 26.8580, "lon": 81.0050 },
  { "name": "Barbeque Nation", "location": "Riverside Mall", "budget": "₹₹₹", "vibe": "Buffet, Unlimited", "signature_dish": "Crispy Corn", "avg_price": 1000, "lat": 26.8550, "lon": 80.9750 },
  { "name": "Mainland China", "location": "Riverside Mall", "budget": "₹₹₹", "vibe": "Oriental, Elegant", "signature_dish": "Dim Sums", "avg_price": 1100, "lat": 26.8555, "lon": 80.9755 },
  { "name": "Boombox Bar Exchange", "location": "Summit", "budget": "₹₹₹", "vibe": "High Energy, Music", "signature_dish": "Nachos", "avg_price": 1500, "lat": 26.8640, "lon": 81.0080 },
  { "name": "The Flying Saucer", "location": "Summit", "budget": "₹₹₹", "vibe": "Lounge, Party", "signature_dish": "Drums of Heaven", "avg_price": 1600, "lat": 26.8645, "lon": 81.0085 },
  { "name": "Lord of the Drinks", "location": "Summit", "budget": "₹₹₹", "vibe": "Loud, Extravagant", "signature_dish": "Pizza", "avg_price": 1700, "lat": 26.8642, "lon": 81.0082 },
  { "name": "Distillery", "location": "Summit", "budget": "₹₹₹", "vibe": "Elite, Rooftop", "signature_dish": "Signature Cocktails", "avg_price": 2000, "lat": 26.8648, "lon": 81.0088 },
  { "name": "Molecule", "location": "Riverside Mall", "budget": "₹₹₹", "vibe": "Experimental, Cool", "signature_dish": "Molecular Gastronomy", "avg_price": 1800, "lat": 26.8558, "lon": 80.9758 },
  { "name": "Beiruty", "location": "Hazratganj", "budget": "₹₹", "vibe": "Middle Eastern", "signature_dish": "Hummus & Pita", "avg_price": 600, "lat": 26.8520, "lon": 80.9448 },
  { "name": "Free Spirit", "location": "Gomti Nagar", "budget": "₹₹", "vibe": "Cafe, Music", "signature_dish": "Burger", "avg_price": 450, "lat": 26.8610, "lon": 81.0010 },
  { "name": "The Chocolate Room", "location": "Hazratganj", "budget": "₹₹", "vibe": "Dessert, Cozy", "signature_dish": "Chocolate Avalanche", "avg_price": 400, "lat": 26.8518, "lon": 80.9444 },
  { "name": "Biryani By Kilo", "location": "Gomti Nagar", "budget": "₹₹", "vibe": "Takeaway, Authentic", "signature_dish": "Hyderabadi Biryani", "avg_price": 500, "lat": 26.8570, "lon": 81.0120 },
  { "name": "Tanu Ki Rasoi", "location": "Near IIIT-L", "budget": "₹", "vibe": "Homely, Pocket Friendly", "signature_dish": "Dal Chawal", "avg_price": 120, "lat": 26.7830, "lon": 81.0330 },
  { "name": "Student Corner", "location": "Sultanpur Road", "budget": "₹", "vibe": "Quick Bite, No Frills", "signature_dish": "Egg Roll", "avg_price": 80, "lat": 26.7850, "lon": 81.0350 },
  { "name": "Momos Hub", "location": "Hazratganj", "budget": "₹", "vibe": "Street, Spicy", "signature_dish": "Kurkure Momos", "avg_price": 150, "lat": 26.8500, "lon": 80.9440 },
  { "name": "Keventers", "location": "Phoenix Palassio", "budget": "₹₹", "vibe": "Classic, Shakes", "signature_dish": "Cold Coffee Shake", "avg_price": 250, "lat": 26.8048, "lon": 81.0242 },
  { "name": "Pind Balluchi", "location": "Riverside Mall", "budget": "₹₹", "vibe": "Punjabi, Village Style", "signature_dish": "Dal Balluchi", "avg_price": 600, "lat": 26.8552, "lon": 80.9752 },
  { "name": "Wenger's Cafe", "location": "Hazratganj", "budget": "₹₹", "vibe": "Bakery, Historic", "signature_dish": "Pastries", "avg_price": 300, "lat": 26.8512, "lon": 80.9441 },
  { "name": "Lucknowi Masala", "location": "Lalbagh", "budget": "₹₹", "vibe": "Family Dining", "signature_dish": "Kadhai Paneer", "avg_price": 500, "lat": 26.8492, "lon": 80.9412 },
  { "name": "The Yellow Chilli", "location": "Gomti Nagar", "budget": "₹₹₹", "vibe": "Gourmet, Modern Indian", "signature_dish": "Shaam Savera", "avg_price": 900, "lat": 26.8615, "lon": 80.9920 }
]